[{
	"name": "Montmorency",
	"lat": 45.55833406076062,
	"lng": -73.72179972076412
}, {
	"name": "De la Concorde",
	"lat": 45.56048249334908,
	"lng": -73.70961176300045
}, {
	"name": "Cartier",
	"lat": 45.56042239844941,
	"lng": -73.68171678924557
}, {
	"name": "Henri-Bourassa",
	"lat": 45.55612544652778,
	"lng": -73.66746889495846
}, {
	"name": "Sauve",
	"lat": 45.55068617606493,
	"lng": -73.65648256683346
}, {
	"name": "Cremazie",
	"lat": 45.54593765326945,
	"lng": -73.63875852966305
}, {
	"name": "Jarry",
	"lat": 45.54326267582994,
	"lng": -73.62854467773434
}, {
	"name": "Jean-Talon",
	"lat": 45.53866382161874,
	"lng": -73.61386763000485
}, {
	"name": "Beaubien",
	"lat": 45.53555261870405,
	"lng": -73.6045120849609
}, {
	"name": "Rosemont",
	"lat": 45.531238733743585,
	"lng": -73.59786020660397
}, {
	"name": "Laurier",
	"lat": 45.527022230263356,
	"lng": -73.5862301483154
}, {
	"name": "Mont-Royal",
	"lat": 45.52455681976834,
	"lng": -73.58176695251461
}, {
	"name": "Sherbrooke",
	"lat": 45.51834019839836,
	"lng": -73.5682378902435
}, {
	"name": "Berri-UQAM",
	"lat": 45.514784312941366,
	"lng": -73.55964409255978
}, {
	"name": "Champ-de-Mars",
	"lat": 45.51020568554362,
	"lng": -73.55635033988949
}, {
	"name": "Place-d Armes",
	"lat": 45.50612294994321,
	"lng": -73.55969773674008
}, {
	"name": "Square-Victoria-OACI",
	"lat": 45.50156617712573,
	"lng": -73.56364594841
}, {
	"name": "Bonaventure",
	"lat": 45.498046832837176,
	"lng": -73.56690751457211
}, {
	"name": "Lucien-L Allier",
	"lat": 45.49493338336677,
	"lng": -73.57108103179928
}, {
	"name": "Georges-Vanier",
	"lat": 45.488954175263196,
	"lng": -73.57642399215695
}, {
	"name": "Lionel-Groulx",
	"lat": 45.482853976823634,
	"lng": -73.57959972763058
}, {
	"name": "Place-Saint-Henri",
	"lat": 45.477227067621925,
	"lng": -73.58661638641354
}, {
	"name": "Vendome",
	"lat": 45.47394695221721,
	"lng": -73.60399710083004
}, {
	"name": "Villa-Maria",
	"lat": 45.479483916880646,
	"lng": -73.61991869354244
}, {
	"name": "Snowdon",
	"lat": 45.48541147705724,
	"lng": -73.627943862915
}, {
	"name": "Cote-Sainte-Catherine",
	"lat": 45.49242144118413,
	"lng": -73.63279329681393
}, {
	"name": "Plamondon",
	"lat": 45.49434677216598,
	"lng": -73.63787876510617
}, {
	"name": "Namur",
	"lat": 45.49496346582773,
	"lng": -73.65311371231076
}, {
	"name": "De la Savane",
	"lat": 45.500302848075435,
	"lng": -73.66180406951901
}, {
	"name": "Du College",
	"lat": 45.509461341457985,
	"lng": -73.67478596115109
}, {
	"name": "Cote-Vertu",
	"lat": 45.51421294464261,
	"lng": -73.68306862258908
}]
